$GPTXT,01,01,02,u-blox AG - www.u-blox.com*50
$GPTXT,01,01,02,HW UBX-M8030 00080000*7E
$GPTXT,01,01,02,EXT CORE 3.01 (107900)*2D
$GPTXT,01,01,02,ROM BASE 3.01 (107888)*3B
$GPTXT,01,01,02,FWVER=SPG 3.01*58
$GPTXT,01,01,02,PROTVER=18.00*0F
$GPTXT,01,01,02,MOD=NEO-M8N-0*79
$GPTXT,01,01,02,FIS=0xEF4015 (100111)*46
$GPTXT,01,01,02,GPS;GLO;GAL;BDS*69
$GPTXT,01,01,02,SBAS;IMES;QZSS*57
$GPTXT,01,01,02,GNSS OTP=GPS;GLO*29
$GPTXT,01,01,02,LLC=FFFFFFFF-FFFFFFED-FFFFFFFF-FFFFFFFF-FFFFFF69*3D
$GPTXT,01,01,02,ANTSUPERV=AC SD PDoS SR*20
$GPTXT,01,01,02,ANTSTATUS=OK*3B
$GPTXT,01,01,02,PF=3FF*55
$GPRMC,015622.00,A,3746.03310,N,12217.15827,W,0.030,,121121,,,D*6F
$GPVTG,,T,,M,0.030,N,0.056,K,D*26
$GPGGA,015622.00,3746.03310,N,12217.15827,W,2,12,0.74,-1.2,M,-29.6,M,,0000*48
$GPGSA,A,3,08,09,05,07,30,14,20,27,04,51,,,1.35,0.74,1.13*07
$GPGSA,A,3,67,66,76,,,,,,,,,,1.35,0.74,1.13*05
$GPGSV,4,1,14,04,08,144,19,05,17,299,24,07,65,044,24,08,34,063,35*75
$GPGSV,4,2,14,09,42,154,36,13,13,316,18,14,48,236,34,17,08,181,22*72
$GPGSV,4,3,14,20,18,267,20,27,13,039,21,30,62,322,35,46,46,191,*74
$GPGSV,4,4,14,48,46,184,30,51,43,156,32*7C
$GLGSV,3,1,09,66,36,189,28,67,60,273,20,68,23,328,22,76,33,043,32*63
$GLGSV,3,2,09,77,58,329,,78,22,267,,85,09,026,15,86,21,072,*68
$GLGSV,3,3,09,87,07,132,15*50
$GPGLL,3746.03310,N,12217.15827,W,015622.00,A,D*75
$GPRMC,015623.00,A,3746.03306,N,12217.15829,W,0.009,,121121,,,D*6D
$GPVTG,,T,,M,0.009,N,0.018,K,D*26
$GPGGA,015623.00,3746.03306,N,12217.15829,W,2,12,0.74,-1.2,M,-29.6,M,,0000*40
$GPGSA,A,3,08,09,05,07,30,14,20,27,04,51,,,1.35,0.74,1.13*07
$GPGSA,A,3,67,66,76,,,,,,,,,,1.35,0.74,1.13*05
$GPGSV,4,1,14,04,08,144,18,05,17,299,25,07,65,044,25,08,34,063,35*74
$GPGSV,4,2,14,09,42,154,36,13,13,316,18,14,48,236,35,17,08,181,22*73
$GPGSV,4,3,14,20,18,267,19,27,13,039,22,30,62,322,35,46,46,191,*7D
$GPGSV,4,4,14,48,46,184,30,51,43,156,32*7C
$GLGSV,3,1,09,66,36,189,28,67,60,273,19,68,23,328,22,76,33,043,31*6A
$GLGSV,3,2,09,77,58,329,,78,22,267,,85,09,026,16,86,21,072,*6B
$GLGSV,3,3,09,87,07,132,12*57
$GPGLL,3746.03306,N,12217.15829,W,015623.00,A,D*7D
$GPRMC,015624.00,A,3746.03304,N,12217.15830,W,0.044,,121121,,,D*69
$GPVTG,,T,,M,0.044,N,0.082,K,D*2C
$GPGGA,015624.00,3746.03304,N,12217.15830,W,2,12,0.74,-1.2,M,-29.6,M,,0000*4D
$GPGSA,A,3,08,09,05,07,30,14,20,27,04,51,,,1.35,0.74,1.13*07
$GPGSA,A,3,67,66,76,,,,,,,,,,1.35,0.74,1.13*05
$GPGSV,4,1,14,04,08,144,16,05,17,299,26,07,65,044,25,08,34,063,35*79
$GPGSV,4,2,14,09,42,154,37,13,13,316,19,14,48,236,35,17,08,181,22*73
$GPGSV,4,3,14,20,18,267,19,27,13,039,23,30,62,322,35,46,46,191,*7C
$GPGSV,4,4,14,48,46,184,31,51,43,156,33*7C
$GLGSV,3,1,09,66,36,189,28,67,60,273,18,68,23,328,22,76,33,043,32*68
$GLGSV,3,2,09,77,58,329,,78,22,267,,85,09,026,15,86,21,072,*68
$GLGSV,3,3,09,87,07,132,12*57
$GPGLL,3746.03304,N,12217.15830,W,015624.00,A,D*70
$GPRMC,015625.00,A,3746.03303,N,12217.15833,W,0.072,,121121,,,D*69
$GPVTG,,T,,M,0.072,N,0.134,K,D*25
$GPGGA,015625.00,3746.03303,N,12217.15833,W,2,12,0.74,-1.5,M,-29.6,M,,0000*4F
$GPGSA,A,3,08,09,05,07,30,14,20,27,04,51,,,1.35,0.74,1.13*07
$GPGSA,A,3,67,66,76,,,,,,,,,,1.35,0.74,1.13*05
$GPGSV,4,1,14,04,08,144,15,05,17,299,26,07,65,044,26,08,34,063,36*7A
$GPGSV,4,2,14,09,42,154,37,13,13,316,20,14,48,236,35,17,08,181,22*79
$GPGSV,4,3,14,20,18,267,18,27,13,039,24,30,62,322,34,46,46,191,*7B
$GPGSV,4,4,14,48,46,184,31,51,43,156,32*7D
$GLGSV,3,1,09,66,36,189,28,67,60,273,18,68,23,328,21,76,33,043,32*6B
$GLGSV,3,2,09,77,58,329,,78,22,267,,85,09,026,16,86,21,072,*6B
$GLGSV,3,3,09,87,07,132,11*54
$GPGLL,3746.03303,N,12217.15833,W,015625.00,A,D*75
$GPRMC,015626.00,A,3746.03301,N,12217.15831,W,0.054,,121121,,,D*6E
$GPVTG,,T,,M,0.054,N,0.099,K,D*27
$GPGGA,015626.00,3746.03301,N,12217.15831,W,2,12,0.74,-1.8,M,-29.6,M,,0000*41
$GPGSA,A,3,08,09,05,07,30,14,20,27,04,51,,,1.35,0.74,1.13*07
$GPGSA,A,3,67,66,76,,,,,,,,,,1.35,0.74,1.13*05
$GPGSV,4,1,14,04,08,144,18,05,17,299,27,07,65,044,27,08,34,063,37*76
$GPGSV,4,2,14,09,42,154,37,13,13,316,21,14,48,236,35,17,08,181,24*7E
$GPGSV,4,3,14,20,18,267,18,27,13,039,24,30,62,322,34,46,46,191,*7B
$GPGSV,4,4,14,48,46,184,32,51,43,156,32*7E
$GLGSV,3,1,09,66,36,189,28,67,60,273,18,68,23,328,21,76,33,043,32*6B
$GLGSV,3,2,09,77,58,329,,78,22,267,,85,09,026,16,86,21,072,*6B
$GLGSV,3,3,09,87,07,132,12*57
$GPGLL,3746.03301,N,12217.15831,W,015626.00,A,D*76
$GPRMC,015627.00,A,3746.03299,N,12217.15828,W,0.065,,121121,,,D*65
$GPVTG,,T,,M,0.065,N,0.120,K,D*26
$GPGGA,015627.00,3746.03299,N,12217.15828,W,2,12,0.74,-1.8,M,-29.6,M,,0000*48
$GPGSA,A,3,08,09,05,07,30,14,20,27,04,51,,,1.35,0.74,1.13*07
$GPGSA,A,3,67,66,76,,,,,,,,,,1.35,0.74,1.13*05
$GPGSV,4,1,14,04,08,144,20,05,17,299,28,07,65,044,27,08,34,063,37*72
$GPGSV,4,2,14,09,42,154,37,13,13,316,20,14,48,236,37,17,08,181,25*7C
$GPGSV,4,3,14,20,18,267,19,27,13,039,24,30,62,322,37,46,46,191,*79
$GPGSV,4,4,14,48,46,184,32,51,43,156,32*7E
$GLGSV,3,1,09,66,36,189,28,67,60,273,17,68,23,328,22,76,33,043,33*66
$GLGSV,3,2,09,77,58,329,,78,22,267,,85,09,026,16,86,21,072,*6B
$GLGSV,3,3,09,87,07,132,12*57
$GPGLL,3746.03299,N,12217.15828,W,015627.00,A,D*7F
$GPRMC,015628.00,A,3746.03296,N,12217.15822,W,0.082,,121121,,,D*66
$GPVTG,,T,,M,0.082,N,0.151,K,D*29
$GPGGA,015628.00,3746.03296,N,12217.15822,W,2,12,0.74,-1.6,M,-29.6,M,,0000*4C
$GPGSA,A,3,08,09,05,07,30,14,20,27,04,51,,,1.35,0.74,1.13*07
$GPGSA,A,3,67,66,76,,,,,,,,,,1.35,0.74,1.13*05
$GPGSV,4,1,14,04,08,144,20,05,17,299,28,07,65,044,26,08,34,063,34*70
$GPGSV,4,2,14,09,42,154,37,13,13,316,20,14,48,236,35,17,08,181,25*7E
$GPGSV,4,3,14,20,18,267,18,27,13,039,23,30,62,322,33,46,46,191,*7B
$GPGSV,4,4,14,48,46,184,32,51,43,156,31*7D
$GLGSV,3,1,09,66,36,189,27,67,60,272,16,68,23,328,22,76,33,043,33*69
$GLGSV,3,2,09,77,58,329,,78,22,267,,85,09,026,16,86,21,072,*6B
$GLGSV,3,3,09,87,07,132,14*51
$GPGLL,3746.03296,N,12217.15822,W,015628.00,A,D*75
$GPRMC,015629.00,A,3746.03293,N,12217.15818,W,0.029,,121121,,,D*6A
$GPVTG,,T,,M,0.029,N,0.054,K,D*2C
$GPGGA,015629.00,3746.03293,N,12217.15818,W,2,12,0.74,-1.4,M,-29.6,M,,0000*43
$GPGSA,A,3,08,09,05,07,30,14,20,27,04,51,,,1.35,0.74,1.13*07
$GPGSA,A,3,67,66,76,,,,,,,,,,1.35,0.74,1.13*05
$GPGSV,4,1,14,04,08,144,22,05,17,299,28,07,65,044,25,08,34,063,34*71
$GPGSV,4,2,14,09,42,154,36,13,13,316,20,14,48,236,33,17,08,181,25*79
$GPGSV,4,3,14,20,18,267,18,27,13,039,23,30,62,322,35,46,46,191,*7D
$GPGSV,4,4,14,48,46,184,31,51,43,156,31*7E
$GLGSV,3,1,09,66,36,189,27,67,60,272,15,68,23,327,23,76,33,043,33*64
$GLGSV,3,2,09,77,58,329,,78,22,267,,85,09,026,15,86,21,072,*68
$GLGSV,3,3,09,87,07,132,14*51
$GPGLL,3746.03293,N,12217.15818,W,015629.00,A,D*78
$GPRMC,015630.00,A,3746.03291,N,12217.15814,W,0.074,,121121,,,D*64
$GPVTG,,T,,M,0.074,N,0.138,K,D*2F
$GPGGA,015630.00,3746.03291,N,12217.15814,W,2,12,0.68,-1.0,M,-29.6,M,,0000*4C
$GPGSA,A,3,08,09,05,07,30,14,20,27,04,51,,,1.25,0.68,1.05*0C
$GPGSA,A,3,67,66,76,,,,,,,,,,1.25,0.68,1.05*0E
$GPGSV,4,1,14,04,08,144,21,05,17,299,28,07,65,044,24,08,34,063,34*73
$GPGSV,4,2,14,09,42,154,35,13,13,316,19,14,48,236,33,17,08,181,25*70
$GPGSV,4,3,14,20,18,267,16,27,13,039,22,30,62,322,32,46,46,191,*75
$GPGSV,4,4,14,48,46,184,30,51,43,156,29*76
$GLGSV,3,1,09,66,36,189,27,67,60,272,15,68,23,327,24,76,33,043,33*63
$GLGSV,3,2,09,77,58,329,,78,22,267,,85,09,026,14,86,21,072,*69
$GLGSV,3,3,09,87,07,132,13*56
$GPGLL,3746.03291,N,12217.15814,W,015630.00,A,D*7E
$GPRMC,015631.00,A,3746.03289,N,12217.15811,W,0.026,,121121,,,D*6E
$GPVTG,,T,,M,0.026,N,0.049,K,D*2F
$GPGGA,015631.00,3746.03289,N,12217.15811,W,2,12,0.68,-0.8,M,-29.6,M,,0000*48
$GPGSA,A,3,08,09,05,07,30,14,20,27,04,51,,,1.25,0.68,1.05*0C
$GPGSA,A,3,67,66,76,,,,,,,,,,1.25,0.68,1.05*0E
$GPGSV,4,1,14,04,08,144,21,05,17,299,29,07,65,044,23,08,34,063,34*75
$GPGSV,4,2,14,09,42,154,35,13,13,316,20,14,48,236,34,17,08,181,26*7E
$GPGSV,4,3,14,20,18,267,17,27,13,039,22,30,62,322,33,46,46,191,*75
$GPGSV,4,4,14,48,46,184,30,51,43,156,30*7E
$GLGSV,3,1,09,66,36,189,26,67,60,272,17,68,23,327,25,76,33,043,33*61
$GLGSV,3,2,09,77,58,329,,78,22,267,,85,09,026,14,86,21,072,*69
$GLGSV,3,3,09,87,07,132,12*57
$GPGLL,3746.03289,N,12217.15811,W,015631.00,A,D*73
$GPRMC,015632.00,A,3746.03287,N,12217.15808,W,0.021,,121121,,,D*6C
$GPVTG,,T,,M,0.021,N,0.039,K,D*2F
$GPGGA,015632.00,3746.03287,N,12217.15808,W,2,12,0.68,-0.6,M,-29.6,M,,0000*43
$GPGSA,A,3,08,09,05,07,30,14,20,27,04,51,,,1.25,0.68,1.05*0C
$GPGSA,A,3,67,66,76,,,,,,,,,,1.25,0.68,1.05*0E
$GPGSV,4,1,14,04,08,144,22,05,17,299,29,07,65,044,23,08,34,063,37*75
$GPGSV,4,2,14,09,42,154,38,13,13,316,21,14,48,236,37,17,08,181,27*70
$GPGSV,4,3,14,20,18,267,18,27,13,039,23,30,62,322,37,46,46,191,*7F
$GPGSV,4,4,14,48,46,184,34,51,43,156,31*7B
$GLGSV,3,1,09,66,36,189,26,67,60,272,17,68,23,327,25,76,33,043,34*66
$GLGSV,3,2,09,77,58,329,,78,22,267,,85,09,026,14,86,21,072,*69
$GLGSV,3,3,09,87,07,132,12*57
$GPGLL,3746.03287,N,12217.15808,W,015632.00,A,D*76
$GPRMC,015633.00,A,3746.03285,N,12217.15805,W,0.029,,121121,,,D*6A
$GPVTG,,T,,M,0.029,N,0.055,K,D*2D
$GPGGA,015633.00,3746.03285,N,12217.15805,W,2,12,0.68,-0.4,M,-29.6,M,,0000*4F
$GPGSA,A,3,08,09,05,07,30,14,20,27,04,51,,,1.25,0.68,1.05*0C
$GPGSA,A,3,67,66,76,,,,,,,,,,1.25,0.68,1.05*0E
$GPGSV,4,1,14,04,08,144,21,05,17,299,29,07,65,044,20,08,34,063,36*74
$GPGSV,4,2,14,09,42,154,38,13,13,316,22,14,48,236,36,17,08,181,26*73
$GPGSV,4,3,14,20,18,267,20,27,13,039,24,30,62,322,35,46,46,191,*71
$GPGSV,4,4,14,48,46,184,33,51,43,156,31*7C
$GLGSV,3,1,09,66,36,189,26,67,60,272,17,68,23,327,26,76,33,043,34*65
$GLGSV,3,2,09,77,58,329,,78,22,267,,85,09,026,12,86,21,072,*6F
$GLGSV,3,3,09,87,07,132,13*56
$GPGLL,3746.03285,N,12217.15805,W,015633.00,A,D*78
$GPRMC,015634.00,A,3746.03283,N,12217.15803,W,0.033,,121121,,,D*66
$GPVTG,,T,,M,0.033,N,0.062,K,D*22
$GPGGA,015634.00,3746.03283,N,12217.15803,W,2,12,0.68,-0.3,M,-29.6,M,,0000*4F
$GPGSA,A,3,08,09,05,07,30,14,20,27,04,51,,,1.25,0.68,1.05*0C
$GPGSA,A,3,67,66,76,,,,,,,,,,1.25,0.68,1.05*0E
$GPGSV,4,1,14,04,08,144,20,05,17,299,28,07,65,044,19,08,34,063,35*7D
$GPGSV,4,2,14,09,42,154,36,13,13,316,22,14,48,236,34,17,08,181,25*7C
$GPGSV,4,3,14,20,18,267,20,27,13,039,24,30,62,322,33,46,46,191,*77
$GPGSV,4,4,14,48,46,184,31,51,43,156,30*7F
$GLGSV,3,1,09,66,36,189,25,67,60,272,16,68,23,327,26,76,33,043,34*67
$GLGSV,3,2,09,77,58,329,,78,22,267,,85,09,026,,86,21,072,*6C
$GLGSV,3,3,09,87,07,132,13*56
$GPGLL,3746.03283,N,12217.15803,W,015634.00,A,D*7F
$GPRMC,015635.00,A,3746.03282,N,12217.15801,W,0.041,,121121,,,D*61
$GPVTG,,T,,M,0.041,N,0.075,K,D*21
$GPGGA,015635.00,3746.03282,N,12217.15801,W,2,12,0.68,-0.1,M,-29.6,M,,0000*4F
$GPGSA,A,3,08,09,05,07,30,14,20,27,04,51,,,1.25,0.68,1.05*0C
$GPGSA,A,3,67,66,76,,,,,,,,,,1.25,0.68,1.05*0E
$GPGSV,4,1,14,04,08,144,18,05,17,299,27,07,65,044,17,08,34,063,34*76
$GPGSV,4,2,14,09,42,154,36,13,13,316,22,14,48,236,34,17,08,181,24*7D
$GPGSV,4,3,14,20,18,267,20,27,13,039,24,30,62,322,33,46,46,191,*77
$GPGSV,4,4,14,48,46,184,31,51,43,156,30*7F
$GLGSV,3,1,09,66,36,189,24,67,60,272,14,68,23,327,26,76,33,043,33*63
$GLGSV,3,2,09,77,58,329,18,78,22,267,,85,09,026,,86,21,072,*65
$GLGSV,3,3,09,87,07,132,14*51
$GPGLL,3746.03282,N,12217.15801,W,015635.00,A,D*7D
$GPRMC,015636.00,A,3746.03280,N,12217.15801,W,0.043,,121121,,,D*62
$GPVTG,,T,,M,0.043,N,0.079,K,D*2F
$GPGGA,015636.00,3746.03280,N,12217.15801,W,2,12,0.68,0.0,M,-29.6,M,,0000*62
$GPGSA,A,3,08,09,05,07,30,14,20,27,04,51,,,1.25,0.68,1.05*0C
$GPGSA,A,3,67,66,76,,,,,,,,,,1.25,0.68,1.05*0E
$GPGSV,4,1,14,04,08,144,18,05,17,299,27,07,65,044,17,08,34,063,35*77
$GPGSV,4,2,14,09,42,154,36,13,13,316,22,14,48,236,35,17,08,181,23*7B
$GPGSV,4,3,14,20,18,267,19,27,13,039,24,30,62,322,33,46,46,191,*7D
$GPGSV,4,4,14,48,46,184,31,51,43,156,29*77
$GLGSV,3,1,09,66,36,189,22,67,60,272,14,68,23,327,26,76,33,043,34*62
$GLGSV,3,2,09,77,58,329,17,78,22,267,,85,09,026,,86,21,072,*6A
$GLGSV,3,3,09,87,07,132,14*51
$GPGLL,3746.03280,N,12217.15801,W,015636.00,A,D*7C
$GPRMC,015637.00,A,3746.03279,N,12217.15804,W,0.091,,121121,,,D*6F
$GPVTG,,T,,M,0.091,N,0.169,K,D*20
$GPGGA,015637.00,3746.03279,N,12217.15804,W,2,12,0.68,-0.1,M,-29.6,M,,0000*4C
$GPGSA,A,3,08,09,05,07,30,14,20,27,04,51,,,1.25,0.68,1.05*0C
$GPGSA,A,3,67,66,76,,,,,,,,,,1.25,0.68,1.05*0E
5*79
$GPGSV,4,2,14,09,42,154,36,13,13,316,22,14,48,236,34,17,08,181,22*7B
$GPGSV,4,3,14,20,18,267,18,27,13,039,23,30,62,322,33,46,46,191,*7B
$GPGSV,4,4,14,48,46,184,31,51,43,156,30*7F
$GLGSV,3,1,09,66,36,189,23,67,60,272,14,68,23,327,26,76,33,043,33*64
$GLGSV,3,2,09,77,58,329,17,78,22,267,,85,09,026,,86,21,072,*6A
$GLGSV,3,3,09,87,07,132,14*51
$GPGLL,3746.03279,N,12217.15804,W,015637.00,A,D*7E
$GPRMC,015638.00,A,3746.03279,N,12217.15802,W,0.017,,121121,,,D*68
$GPVTG,,T,,M,0.017,N,0.032,K,D*21
$GPGGA,015638.00,3746.03279,N,12217.15802,W,2,12,0.68,0.3,M,-29.6,M,,0000*6A
$GPGSA,A,3,08,09,05,07,30,14,20,27,04,51,,,1.25,0.68,1.05*0C
$GPGSA,A,3,67,66,76,,,,,,,,,,1.25,0.68,1.05*0E
$GPGSV,4,1,14,04,08,144,17,05,17,299,28,07,65,044,19,08,34,063,35*79
$GPGSV,4,2,14,09,42,154,36,13,13,316,22,14,48,236,35,17,08,181,21*79
$GPGSV,4,3,14,20,18,267,17,27,13,039,23,30,62,322,34,46,46,191,*73
$GPGSV,4,4,14,48,46,184,31,51,43,156,30*7F
$GLGSV,3,1,09,66,36,189,22,67,60,272,15,68,23,327,26,76,33,043,33*64
$GLGSV,3,2,09,77,58,331,16,78,22,267,,85,09,026,,86,21,072,*62
$GLGSV,3,3,09,87,07,132,14*51
$GPGLL,3746.03279,N,12217.15802,W,015638.00,A,D*77
$GPRMC,015639.00,A,3746.03278,N,12217.15799,W,0.030,,121121,,,D*60
$GPVTG,,T,,M,0.030,N,0.056,K,D*26
$GPGGA,015639.00,3746.03278,N,12217.15799,W,2,12,0.68,0.5,M,-29.6,M,,0000*61
$GPGSA,A,3,08,09,05,07,30,14,20,27,04,51,,,1.25,0.68,1.05*0C
$GPGSA,A,3,67,77,66,76,,,,,,,,,1.25,0.68,1.05*0E
$GPGSV,4,1,14,04,08,144,16,05,17,299,28,07,65,044,20,08,34,063,35*72
$GPGSV,4,2,14,09,42,154,36,13,13,316,23,14,48,236,35,17,08,181,20*79
$GPGSV,4,3,14,20,18,267,16,27,13,039,22,30,62,322,34,46,46,191,*73
$GPGSV,4,4,14,48,46,184,31,51,43,156,30*7F
$GLGSV,3,1,09,66,36,189,22,67,60,272,15,68,23,327,27,76,33,043,33*65
$GLGSV,3,2,09,77,58,331,14,78,22,268,,85,09,026,,86,21,072,*6F
$GLGSV,3,3,09,87,07,132,14*51
$GPGLL,3746.03278,N,12217.15799,W,015639.00,A,D*7A
$GPRMC,015640.00,A,3746.03278,N,12217.15798,W,0.045,,121121,,,D*6D
$GPVTG,,T,,M,0.045,N,0.083,K,D*2C
$GPGGA,015640.00,3746.03278,N,12217.15798,W,2,12,0.68,0.6,M,-29.6,M,,0000*6D
$GPGSA,A,3,08,09,05,07,30,14,20,27,04,51,,,1.25,0.68,1.05*0C
$GPGSA,A,3,67,77,66,76,,,,,,,,,1.25,0.68,1.05*0E
$GPGSV,4,1,14,04,08,144,17,05,17,299,29,07,65,044,20,08,34,063,36*71
$GPGSV,4,2,14,09,42,154,36,13,13,316,23,14,48,236,36,17,08,181,22*78
$GPGSV,4,3,14,20,18,267,17,27,13,039,22,30,62,322,34,46,46,191,*72
$GPGSV,4,4,14,48,46,184,32,51,43,156,30*7C
$GLGSV,3,1,09,66,36,189,23,67,60,272,14,68,23,327,27,76,33,043,34*62
$GLGSV,3,2,09,77,58,331,12,78,22,268,,85,09,026,,86,21,072,*69
$GLGSV,3,3,09,87,07,132,14*51
$GPGLL,3746.03278,N,12217.15798,W,015640.00,A,D*75
$GPRMC,015641.00,A,3746.03274,N,12217.15797,W,0.094,,121121,,,D*63
$GPVTG,,T,,M,0.094,N,0.174,K,D*29
$GPGGA,015641.00,3746.03274,N,12217.15797,W,2,12,0.69,0.7,M,-29.6,M,,0000*6F
$GPGSA,A,3,08,09,05,07,30,14,20,27,04,51,,,1.32,0.69,1.13*0C
$GPGSA,A,3,66,76,,,,,,,,,,,1.32,0.69,1.13*0F
$GPGSV,4,1,14,04,08,144,18,05,17,299,29,07,65,044,21,08,34,063,35*7C
$GPGSV,4,2,14,09,42,154,35,13,13,316,23,14,48,236,35,17,08,181,23*79
$GPGSV,4,3,14,20,18,267,16,27,13,039,22,30,62,322,34,46,46,191,*73
$GPGSV,4,4,14,48,46,184,32,51,43,156,30*7C
$GLGSV,3,1,09,66,36,189,25,67,60,272,12,68,23,327,27,76,33,043,33*65
$GLGSV,3,2,09,77,58,331,10,78,22,268,,85,09,026,,86,21,072,*6B
$GLGSV,3,3,09,87,07,132,13*56
$GPGLL,3746.03274,N,12217.15797,W,015641.00,A,D*77
$GPRMC,015642.00,A,3746.03272,N,12217.15796,W,0.006,,121121,,,D*6C
$GPVTG,,T,,M,0.006,N,0.011,K,D*20
$GPGGA,015642.00,3746.03272,N,12217.15796,W,2,12,0.69,0.7,M,-29.6,M,,0000*6B
$GPGSA,A,3,08,09,05,07,30,14,20,27,04,51,,,1.32,0.69,1.13*0C
$GPGSA,A,3,66,76,,,,,,,,,,,1.32,0.69,1.13*0F
$GPGSV,4,1,14,04,08,144,18,05,17,299,28,07,65,044,22,08,34,063,35*7E
$GPGSV,4,2,14,09,42,154,35,13,13,316,22,14,48,236,34,17,08,181,24*7E
$GPGSV,4,3,14,20,18,267,15,27,13,039,21,30,62,322,34,46,46,191,*73
$GPGSV,4,4,14,48,46,184,32,51,43,156,31*7D
$GLGSV,3,1,09,66,36,189,26,67,60,272,08,68,23,327,27,76,33,043,33*6D
$GLGSV,3,2,09,77,58,331,09,78,22,268,,85,09,026,,86,21,072,*63
$GLGSV,3,3,09,87,07,132,15*50
$GPGLL,3746.03272,N,12217.15796,W,015642.00,A,D*73
$GPRMC,015643.00,A,3746.03271,N,12217.15795,W,0.030,,121121,,,D*68
$GPVTG,,T,,M,0.030,N,0.055,K,D*25
$GPGGA,015643.00,3746.03271,N,12217.15795,W,2,12,0.69,1.1,M,-29.6,M,,0000*6D
$GPGSA,A,3,08,09,05,07,30,14,20,27,04,51,,,1.32,0.69,1.13*0C
$GPGSA,A,3,67,66,76,,,,,,,,,,1.32,0.69,1.13*0E
$GPGSV,4,1,14,04,08,144,18,05,17,299,28,07,65,044,23,08,34,063,35*7F
$GPGSV,4,2,14,09,42,154,34,13,13,316,22,14,48,236,34,17,08,181,23*78
$GPGSV,4,3,14,20,18,267,15,27,13,039,20,30,62,322,34,46,46,191,*72
$GPGSV,4,4,14,48,46,184,32,51,43,156,31*7D
$GLGSV,3,1,09,66,36,189,27,67,60,272,19,68,23,327,26,76,33,043,33*6D
$GLGSV,3,2,09,77,58,331,08,78,22,268,,85,09,026,,86,21,072,*62
$GLGSV,3,3,09,87,07,132,14*51
$GPGLL,3746.03271,N,12217.15795,W,015643.00,A,D*72
$GPRMC,015644.00,A,3746.03269,N,12217.15791,W,0.053,,121121,,,D*67
$GPVTG,,T,,M,0.053,N,0.099,K,D*20
$GPGGA,015644.00,3746.03269,N,12217.15791,W,2,12,0.69,1.3,M,-29.6,M,,0000*65
$GPGSA,A,3,08,09,05,07,30,14,20,27,04,51,,,1.32,0.69,1.13*0C
$GPGSA,A,3,67,66,76,,,,,,,,,,1.32,0.69,1.13*0E
$GPGSV,4,1,14,04,08,144,17,05,17,299,28,07,65,044,25,08,34,063,35*76
$GPGSV,4,2,14,09,42,154,34,13,13,316,21,14,48,236,33,17,08,181,24*7B
$GPGSV,4,3,14,20,18,267,13,27,13,039,20,30,62,322,35,46,46,191,*75
$GPGSV,4,4,14,48,46,184,32,51,43,156,31*7D
$GLGSV,3,1,09,66,36,189,27,67,60,272,13,68,23,327,26,76,33,043,33*67
$GLGSV,3,2,09,77,58,331,09,78,22,268,,85,09,026,,86,21,072,*63
$GLGSV,3,3,09,87,07,132,15*50
$GPGLL,3746.03269,N,12217.15791,W,015644.00,A,D*78
$GPRMC,015645.00,A,3746.03268,N,12217.15791,W,0.009,,121121,,,D*68
$GPVTG,,T,,M,0.009,N,0.017,K,D*29
$GPGGA,015645.00,3746.03268,N,12217.15791,W,2,12,0.68,1.4,M,-29.6,M,,0000*63
$GPGSA,A,3,08,09,05,07,30,14,20,27,04,51,,,1.25,0.68,1.05*0C
$GPGSA,A,3,67,77,66,76,,,,,,,,,1.25,0.68,1.05*0E
$GPGSV,4,1,14,04,08,144,17,05,17,299,26,07,65,044,25,08,34,063,33*7E
$GPGSV,4,2,14,09,42,154,33,13,13,316,20,14,48,236,33,17,08,181,24*7D
$GPGSV,4,3,14,20,18,267,14,27,13,039,19,30,62,322,34,46,46,191,*79
$GPGSV,4,4,14,48,46,184,31,51,43,156,31*7E
$GLGSV,3,1,09,66,36,189,27,67,60,272,14,68,23,327,25,76,33,043,32*62
$GLGSV,3,2,09,77,58,331,11,78,22,268,,85,09,026,,86,21,072,*6A
$GLGSV,3,3,09,87,07,132,15*50
$GPGLL,3746.03268,N,12217.15791,W,015645.00,A,D*78
$GPRMC,015646.00,A,3746.03267,N,12217.15787,W,0.072,,121121,,,D*6F
$GPVTG,,T,,M,0.072,N,0.133,K,D*22
$GPGGA,015646.00,3746.03267,N,12217.15787,W,2,12,0.68,1.4,M,-29.6,M,,0000*68
$GPGSA,A,3,08,09,05,07,30,14,20,27,04,51,,,1.25,0.68,1.05*0C
$GPGSA,A,3,67,66,76,,,,,,,,,,1.25,0.68,1.05*0E
$GPGSV,4,1,14,04,08,144,18,05,17,299,26,07,65,044,24,08,34,063,35*76
$GPGSV,4,2,14,09,42,154,35,13,13,316,21,14,48,236,33,17,08,181,24*7A
$GPGSV,4,3,14,20,18,267,15,27,13,039,17,30,62,322,34,46,46,191,*76
$GPGSV,4,4,14,48,46,184,31,51,43,156,31*7E
$GLGSV,3,1,09,66,36,189,27,67,60,272,12,68,23,327,23,76,33,043,30*60
$GLGSV,3,2,09,77,58,331,08,78,22,268,,85,09,025,,86,21,072,*61
$GLGSV,3,3,09,87,07,132,14*51
$GPGLL,3746.03267,N,12217.15787,W,015646.00,A,D*73
$GPRMC,015647.00,A,3746.03264,N,12217.15783,W,0.034,,121121,,,D*6B
$GPVTG,,T,,M,0.034,N,0.063,K,D*24
$GPGGA,015647.00,3746.03264,N,12217.15783,W,2,12,0.68,1.6,M,-29.6,M,,0000*6C
$GPGSA,A,3,08,09,05,07,30,14,20,27,04,51,,,1.25,0.68,1.05*0C
$GPGSA,A,3,67,66,76,,,,,,,,,,1.25,0.68,1.05*0E
$GPGSV,4,1,14,04,08,144,19,05,17,299,26,07,65,044,26,08,34,063,36*76
$GPGSV,4,2,14,09,42,154,36,13,13,316,22,14,48,236,34,17,08,181,25*7C
$GPGSV,4,3,14,20,18,267,17,27,13,039,16,30,62,322,37,46,46,191,*76
$GPGSV,4,4,14,48,46,184,32,51,43,156,32*7E
$GLGSV,3,1,09,66,36,189,28,67,60,272,15,68,23,327,22,76,33,043,32*6B
$GLGSV,3,2,09,77,58,331,08,78,22,268,,85,09,025,,86,21,071,*62
$GLGSV,3,3,09,87,07,132,13*56
$GPGLL,3746.03264,N,12217.15783,W,015647.00,A,D*75
$GPRMC,015648.00,A,3746.03261,N,12217.15780,W,0.071,,121121,,,D*63
$GPVTG,,T,,M,0.071,N,0.131,K,D*23
$GPGGA,015648.00,3746.03261,N,12217.15780,W,2,12,0.68,1.6,M,-29.6,M,,0000*65
$GPGSA,A,3,08,09,05,07,30,14,20,27,04,51,,,1.25,0.68,1.05*0C
$GPGSA,A,3,67,66,76,,,,,,,,,,1.25,0.68,1.05*0E
$GPGSV,4,1,14,04,08,144,20,05,17,299,26,07,65,044,26,08,34,063,35*7F
$GPGSV,4,2,14,09,42,154,36,13,13,316,21,14,48,236,34,17,08,181,26*7C
$GPGSV,4,3,14,20,18,267,19,27,13,039,16,30,62,322,35,46,46,191,*7A
$GPGSV,4,4,14,48,46,184,32,51,43,156,33*7F
$GLGSV,3,1,09,66,36,189,29,67,60,272,12,68,23,327,22,76,33,043,33*6C
$GLGSV,3,2,09,77,58,331,09,78,22,268,,85,09,025,,86,21,071,*63
$GLGSV,3,3,09,87,08,132,15*5F
$GPGLL,3746.03261,N,12217.15780,W,015648.00,A,D*7C
$GPRMC,015649.00,A,3746.03258,N,12217.15778,W,0.032,,121121,,,D*68
$GPVTG,,T,,M,0.032,N,0.060,K,D*21
$GPGGA,015649.00,3746.03258,N,12217.15778,W,2,12,0.68,1.5,M,-29.6,M,,0000*6A
$GPGSA,A,3,08,09,05,07,30,14,20,27,04,51,,,1.25,0.68,1.05*0C
$GPGSA,A,3,67,66,76,,,,,,,,,,1.25,0.68,1.05*0E
$GPGSV,4,1,14,04,08,144,21,05,17,299,26,07,65,044,25,08,34,063,35*7D
$GPGSV,4,2,14,09,42,154,35,13,13,316,21,14,48,236,33,17,08,181,25*7B
$GPGSV,4,3,14,20,18,267,19,27,13,039,16,30,62,322,35,46,46,191,*7A
$GPGSV,4,4,14,48,46,184,32,51,43,156,32*7E
$GLGSV,3,1,09,66,36,189,30,67,60,272,18,68,23,327,22,76,33,043,33*6E
$GLGSV,3,2,09,77,58,331,08,78,22,268,,85,09,025,,86,21,071,*62
$GLGSV,3,3,09,87,08,132,16*5C
$GPGLL,3746.03258,N,12217.15778,W,015649.00,A,D*70
$GPRMC,015650.00,A,3746.03255,N,12217.15776,W,0.053,,121121,,,D*64
$GPVTG,,T,,M,0.053,N,0.098,K,D*21
$GPGGA,015650.00,3746.03255,N,12217.15776,W,2,12,0.68,1.5,M,-29.6,M,,0000*61
$GPGSA,A,3,08,09,05,07,30,14,20,27,04,51,,,1.25,0.68,1.05*0C
$GPGSA,A,3,67,66,76,,,,,,,,,,1.25,0.68,1.05*0E
$GPGSV,4,1,14,04,08,144,21,05,17,299,25,07,65,044,25,08,34,063,35*7E
$GPGSV,4,2,14,09,42,154,35,13,13,316,22,14,48,236,34,17,08,181,25*7F
$GPGSV,4,3,14,20,18,267,20,27,13,039,15,30,62,322,35,46,46,191,*73
$GPGSV,4,4,14,48,46,184,32,51,43,156,31*7D
$GLGSV,3,1,09,66,36,189,30,67,60,272,18,68,23,327,22,76,33,043,33*6E
$GLGSV,3,2,09,77,58,331,10,78,22,268,,85,09,025,,86,21,071,*6B
$GLGSV,3,3,09,87,08,132,16*5C
$GPGLL,3746.03255,N,12217.15776,W,015650.00,A,D*7B
$GPRMC,015651.00,A,3746.03252,N,12217.15774,W,0.063,,121121,,,D*63
$GPVTG,,T,,M,0.063,N,0.116,K,D*25
$GPGGA,015651.00,3746.03252,N,12217.15774,W,2,12,0.68,1.6,M,-29.6,M,,0000*66
$GPGSA,A,3,08,09,05,07,30,14,20,27,04,51,,,1.25,0.68,1.05*0C
$GPGSA,A,3,67,77,66,76,,,,,,,,,1.25,0.68,1.05*0E
$GPGSV,4,1,14,04,08,144,21,05,17,299,23,07,65,044,23,08,34,063,34*7F
$GPGSV,4,2,14,09,42,154,35,13,13,316,22,14,48,236,33,17,08,181,25*78
$GPGSV,4,3,14,20,18,267,20,27,13,039,14,30,62,322,34,46,46,191,*73
$GPGSV,4,4,14,48,46,184,31,51,43,156,30*7F
$GLGSV,3,1,09,66,36,189,29,67,60,272,13,68,23,327,22,76,33,043,33*6D
$GLGSV,3,2,09,77,58,331,12,78,22,268,,85,09,025,,86,21,071,*69
$GLGSV,3,3,09,87,08,132,15*5F
$GPGLL,3746.03252,N,12217.15774,W,015651.00,A,D*7F
$GPRMC,015652.00,A,3746.03251,N,12217.15776,W,0.129,,121121,,,D*6E
$GPVTG,,T,,M,0.129,N,0.239,K,D*24
$GPGGA,015652.00,3746.03251,N,12217.15776,W,2,12,0.68,1.5,M,-29.6,M,,0000*67
$GPGSA,A,3,08,09,05,07,30,14,20,27,04,51,,,1.25,0.68,1.05*0C
$GPGSA,A,3,67,77,66,76,,,,,,,,,1.25,0.68,1.05*0E
$GPGSV,4,1,14,04,08,144,22,05,17,299,22,07,65,044,23,08,34,063,35*7C
$GPGSV,4,2,14,09,42,154,36,13,13,316,22,14,48,236,34,17,08,181,24*7D
$GPGSV,4,3,14,20,18,267,19,27,13,039,13,30,62,322,34,46,46,191,*7E
$GPGSV,4,4,14,48,46,184,31,51,43,156,30*7F
$GLGSV,3,1,09,66,36,189,29,67,60,272,16,68,23,327,23,76,33,043,32*68
$GLGSV,3,2,09,77,58,331,11,78,22,268,,85,09,025,,86,21,071,*6A
$GLGSV,3,3,09,87,08,132,13*59
$GPGLL,3746.03251,N,12217.15776,W,015652.00,A,D*7D
$GPRMC,015653.00,A,3746.03249,N,12217.15776,W,0.043,,121121,,,D*6B
$GPVTG,,T,,M,0.043,N,0.080,K,D*29
$GPGGA,015653.00,3746.03249,N,12217.15776,W,2,12,0.74,1.4,M,-29.6,M,,0000*63
$GPGSA,A,3,08,09,05,07,30,14,20,04,51,,,,1.34,0.74,1.12*02
$GPGSA,A,3,67,66,76,,,,,,,,,,1.34,0.74,1.12*05
$GPGSV,4,1,14,04,08,144,22,05,17,299,21,07,65,044,23,08,34,063,35*7F
$GPGSV,4,2,14,09,42,154,36,13,13,316,22,14,48,236,34,17,08,181,24*7D
$GPGSV,4,3,14,20,18,267,20,27,13,039,10,30,62,322,34,46,46,191,*77
$GPGSV,4,4,14,48,46,184,31,51,43,156,29*77
$GLGSV,3,1,09,66,36,189,28,67,60,272,17,68,23,327,23,76,33,043,32*68
$GLGSV,3,2,09,77,58,331,09,78,22,268,,85,09,025,,86,21,071,*63
$GLGSV,3,3,09,87,08,132,12*58
$GPGLL,3746.03249,N,12217.15776,W,015653.00,A,D*75
$GPRMC,015654.00,A,3746.03248,N,12217.15778,W,0.027,,121121,,,D*61
$GPVTG,,T,,M,0.027,N,0.050,K,D*26
$GPGGA,015654.00,3746.03248,N,12217.15778,W,2,12,0.74,1.1,M,-29.6,M,,0000*6E
$GPGSA,A,3,08,09,05,07,30,14,20,04,51,,,,1.34,0.74,1.12*02
$GPGSA,A,3,67,77,66,76,,,,,,,,,1.34,0.74,1.12*05
$GPGSV,4,1,14,04,08,144,22,05,17,298,21,07,65,044,21,08,34,063,34*7D
$GPGSV,4,2,14,09,42,154,35,13,13,316,23,14,48,236,34,17,08,181,23*78
$GPGSV,4,3,14,20,18,267,21,27,13,039,08,30,62,322,34,46,46,191,*7F
$GPGSV,4,4,14,48,46,184,31,51,43,156,29*77
$GLGSV,3,1,09,66,36,189,28,67,60,272,17,68,23,327,22,76,33,043,32*69
$GLGSV,3,2,09,77,58,331,13,78,22,268,,85,09,025,,86,21,071,*68
$GLGSV,3,3,09,87,08,132,14*5E
$GPGLL,3746.03248,N,12217.15778,W,015654.00,A,D*7D
$GPRMC,015655.00,A,3746.03247,N,12217.15778,W,0.055,,121121,,,D*6A
$GPVTG,,T,,M,0.055,N,0.102,K,D*25
$GPGGA,015655.00,3746.03247,N,12217.15778,W,2,12,0.74,1.1,M,-29.6,M,,0000*60
$GPGSA,A,3,08,09,05,07,30,14,20,04,51,,,,1.34,0.74,1.12*02
$GPGSA,A,3,67,77,66,76,,,,,,,,,1.34,0.74,1.12*05
$GPGSV,4,1,14,04,08,144,22,05,17,298,20,07,65,044,20,08,34,063,34*7D
$GPGSV,4,2,14,09,42,154,36,13,13,316,24,14,48,236,34,17,08,181,22*7D
$GPGSV,4,3,14,20,18,267,21,27,13,039,08,30,62,322,34,46,46,191,*7F
$GPGSV,4,4,14,48,46,184,31,51,43,156,30*7F
$GLGSV,3,1,09,66,36,189,28,67,60,272,18,68,23,327,22,76,33,043,32*66
$GLGSV,3,2,09,77,58,331,13,78,22,268,,85,09,025,,86,21,071,*68
$GLGSV,3,3,09,87,08,132,13*59
$GPGLL,3746.03247,N,12217.15778,W,015655.00,A,D*73
$GPRMC,015656.00,A,3746.03248,N,12217.15782,W,0.133,,121121,,,D*62
$GPVTG,,T,,M,0.133,N,0.246,K,D*27
$GPGGA,015656.00,3746.03248,N,12217.15782,W,2,12,0.74,0.9,M,-29.6,M,,0000*60
$GPGSA,A,3,08,09,05,07,30,14,20,04,51,,,,1.34,0.74,1.12*02
$GPGSA,A,3,67,77,66,76,,,,,,,,,1.34,0.74,1.12*05
$GPGSV,4,1,14,04,08,144,21,05,17,298,20,07,65,045,19,08,34,063,35*74
$GPGSV,4,2,14,09,42,154,36,13,13,316,23,14,48,236,34,17,08,181,21*79
$GPGSV,4,3,14,20,18,267,20,27,13,039,10,30,62,322,34,46,46,191,*77
$GPGSV,4,4,14,48,46,184,31,51,43,156,29*77
$GLGSV,3,1,09,66,36,189,27,67,60,272,18,68,23,327,23,76,33,043,32*68
$GLGSV,3,2,09,77,58,331,14,78,22,268,,85,09,025,,86,21,071,*6F
$GLGSV,3,3,09,87,08,132,12*58
$GPGLL,3746.03248,N,12217.15782,W,015656.00,A,D*7A
$GPRMC,015657.00,A,3746.03250,N,12217.15787,W,0.144,,121121,,,D*6F
$GPVTG,,T,,M,0.144,N,0.267,K,D*24
$GPGGA,015657.00,3746.03250,N,12217.15787,W,2,12,0.74,0.8,M,-29.6,M,,0000*6C
$GPGSA,A,3,08,09,05,07,30,14,20,04,51,,,,1.34,0.74,1.12*02
$GPGSA,A,3,67,77,66,76,,,,,,,,,1.34,0.74,1.12*05
$GPGSV,4,1,14,04,08,144,20,05,17,298,21,07,65,045,19,08,34,062,35*75
$GPGSV,4,2,14,09,42,154,35,13,13,316,23,14,48,236,35,17,08,181,20*7A
$GPGSV,4,3,14,20,18,267,20,27,13,039,,30,62,322,34,46,46,191,*76
$GPGSV,4,4,14,48,46,184,30,51,43,156,29*76
$GLGSV,3,1,09,66,36,189,26,67,60,272,18,68,23,327,23,76,33,043,33*68
$GLGSV,3,2,09,77,58,331,17,78,22,268,,85,09,025,,86,21,071,*6C
$GLGSV,3,3,09,87,08,132,11*5B
$GPGLL,3746.03250,N,12217.15787,W,015657.00,A,D*77
$GPRMC,015658.00,A,3746.03249,N,12217.15787,W,0.021,,121121,,,D*6A
$GPVTG,,T,,M,0.021,N,0.039,K,D*2F
$GPGGA,015658.00,3746.03249,N,12217.15787,W,2,12,0.77,0.6,M,-29.6,M,,0000*66
$GPGSA,A,3,08,09,05,07,30,14,20,04,51,,,,1.45,0.77,1.23*05
$GPGSA,A,3,67,77,66,76,,,,,,,,,1.45,0.77,1.23*02
$GPGSV,4,1,14,04,08,144,19,05,17,298,21,07,65,045,17,08,34,062,35*71
$GPGSV,4,2,14,09,41,154,35,13,13,316,23,14,48,236,35,17,08,181,19*73
$GPGSV,4,3,14,20,18,267,19,27,13,039,,30,62,322,34,46,46,191,*7C
$GPGSV,4,4,14,48,46,184,31,51,43,156,29*77
$GLGSV,3,1,09,66,36,189,26,67,60,272,17,68,23,327,23,76,33,043,33*67
$GLGSV,3,2,09,77,58,331,17,78,22,268,,85,09,025,,86,21,071,*6C
$GLGSV,3,3,09,87,08,132,14*5E
$GPGLL,3746.03249,N,12217.15787,W,015658.00,A,D*70
$GPRMC,015659.00,A,3746.03249,N,12217.15786,W,0.057,,121121,,,D*6B
$GPVTG,,T,,M,0.057,N,0.106,K,D*23
$GPGGA,015659.00,3746.03249,N,12217.15786,W,2,12,0.77,0.5,M,-29.6,M,,0000*65
$GPGSA,A,3,08,09,05,07,30,14,20,04,51,,,,1.45,0.77,1.23*05
$GPGSA,A,3,67,77,66,76,,,,,,,,,1.45,0.77,1.23*02
$GPGSV,4,1,14,04,08,144,18,05,17,298,23,07,65,045,15,08,34,062,35*70
$GPGSV,4,2,14,09,41,154,35,13,13,316,24,14,48,236,36,17,08,181,20*7D
$GPGSV,4,3,14,20,18,267,19,27,13,039,,30,62,322,34,46,46,191,*7C
$GPGSV,4,4,14,48,46,184,31,51,43,156,29*77
$GLGSV,3,1,09,66,36,189,26,67,60,272,18,68,23,327,23,76,33,043,33*68
$GLGSV,3,2,09,77,58,331,17,78,22,268,,85,09,025,,86,21,071,*6C
$GLGSV,3,3,09,87,08,132,14*5E
$GPGLL,3746.03249,N,12217.15786,W,015659.00,A,D*70
$GPRMC,015700.00,A,3746.03251,N,12217.15789,W,0.129,,121121,,,D*68
$GPVTG,,T,,M,0.129,N,0.239,K,D*24
$GPGGA,015700.00,3746.03251,N,12217.15789,W,2,12,0.77,0.2,M,-29.6,M,,0000*69
$GPGSA,A,3,08,09,05,07,30,14,20,04,51,,,,1.45,0.77,1.23*05
$GPGSA,A,3,67,77,66,76,,,,,,,,,1.45,0.77,1.23*02
$GPGSV,4,1,14,04,08,144,17,05,17,298,24,07,65,045,11,08,34,062,35*7C
$GPGSV,4,2,14,09,41,154,35,13,13,316,24,14,48,236,36,17,08,181,20*7D
$GPGSV,4,3,14,20,18,267,19,27,13,039,,30,62,322,35,46,46,191,*7D
$GPGSV,4,4,14,48,46,184,32,51,43,156,29*74
$GLGSV,3,1,09,66,36,189,27,67,60,272,19,68,23,327,23,76,33,043,33*68
$GLGSV,3,2,09,77,58,331,17,78,22,268,,85,09,025,,86,21,071,*6C
$GLGSV,3,3,09,87,08,132,12*58
$GPGLL,3746.03251,N,12217.15789,W,015700.00,A,D*7B
$GPRMC,015701.00,A,3746.03254,N,12217.15796,W,0.261,,121121,,,D*6D
$GPVTG,,T,,M,0.261,N,0.483,K,D*2C
$GPGGA,015701.00,3746.03254,N,12217.15796,W,2,12,0.77,-0.2,M,-29.6,M,,0000*4E
$GPGSA,A,3,08,09,05,07,30,14,20,04,51,,,,1.45,0.77,1.23*05
$GPGSA,A,3,67,77,66,76,,,,,,,,,1.45,0.77,1.23*02
$GPGSV,4,1,14,04,08,144,17,05,17,298,24,07,65,045,13,08,34,062,35*7E
$GPGSV,4,2,14,09,41,154,35,13,13,316,24,14,48,236,37,17,08,181,21*7D
$GPGSV,4,3,14,20,18,267,19,27,13,039,,30,62,322,34,46,46,191,*7C
$GPGSV,4,4,14,48,46,184,31,51,43,156,28*76
$GLGSV,3,1,09,66,36,189,27,67,60,272,19,68,23,327,22,76,33,043,33*69
$GLGSV,3,2,09,77,58,331,17,78,22,268,,85,09,025,,86,21,071,*6C
$GLGSV,3,3,09,87,08,132,12*58
$GPGLL,3746.03254,N,12217.15796,W,015701.00,A,D*71
$GPRMC,015702.00,A,3746.03252,N,12217.15792,W,0.150,,121121,,,D*6D
$GPVTG,,T,,M,0.150,N,0.279,K,D*2E
$GPGGA,015702.00,3746.03252,N,12217.15792,W,2,12,0.79,-0.1,M,-29.6,M,,0000*42
$GPGSA,A,3,08,09,05,07,30,14,20,04,51,,,,1.54,0.79,1.32*0B
$GPGSA,A,3,67,77,66,76,,,,,,,,,1.54,0.79,1.32*0C
$GPGSV,4,1,14,04,08,144,18,05,17,298,24,07,65,045,09,08,34,062,35*7A
$GPGSV,4,2,14,09,41,154,35,13,14,316,23,14,48,236,36,17,08,181,22*7F
$GPGSV,4,3,14,20,18,267,18,27,13,039,20,30,62,322,34,46,46,191,*7F
$GPGSV,4,4,14,48,46,184,30,51,43,156,28*77
$GLGSV,3,1,09,66,36,189,26,67,60,272,21,68,23,327,23,76,33,043,33*62
$GLGSV,3,2,09,77,58,331,17,78,22,268,,85,09,025,,86,21,071,*6C
$GLGSV,3,3,09,87,08,132,13*59
$GPGLL,3746.03252,N,12217.15792,W,015702.00,A,D*70
$GPRMC,015703.00,A,3746.03250,N,12217.15790,W,0.028,,121121,,,D*62
$GPVTG,,T,,M,0.028,N,0.053,K,D*2A
$GPGGA,015703.00,3746.03250,N,12217.15790,W,2,12,0.77,-0.3,M,-29.6,M,,0000*4F
$GPGSA,A,3,08,09,05,07,30,14,20,04,51,,,,1.45,0.77,1.23*05
$GPGSA,A,3,67,77,66,76,,,,,,,,,1.45,0.77,1.23*02
$GPGSV,4,1,14,04,08,144,19,05,17,298,23,07,65,045,09,08,34,062,35*7C
$GPGSV,4,2,14,09,41,154,35,13,14,316,23,14,49,236,36,17,08,181,23*7F
$GPGSV,4,3,14,20,18,267,18,27,13,039,20,30,62,322,34,46,46,191,*7F
$GPGSV,4,4,14,48,46,184,31,51,43,156,28*76
$GLGSV,3,1,09,66,36,189,28,67,60,272,22,68,23,327,23,76,33,043,33*6F
$GLGSV,3,2,09,77,58,331,17,78,22,268,,85,09,025,,86,21,071,*6C
$GLGSV,3,3,09,87,08,132,13*59
$GPGLL,3746.03250,N,12217.15790,W,015703.00,A,D*71
$GPRMC,015704.00,A,3746.03249,N,12217.15789,W,0.074,,121121,,,D*6C
$GPVTG,,T,,M,0.074,N,0.137,K,D*20
$GPGGA,015704.00,3746.03249,N,12217.15789,W,2,12,0.74,-0.5,M,-29.6,M,,0000*4D
$GPGSA,A,3,08,09,05,07,30,14,20,04,51,,,,1.34,0.74,1.12*02
$GPGSA,A,3,67,77,66,76,,,,,,,,,1.34,0.74,1.12*05
$GPGSV,4,1,14,04,08,144,18,05,17,298,24,07,65,045,09,08,34,062,35*7A
$GPGSV,4,2,14,09,41,154,36,13,14,316,22,14,49,236,37,17,08,181,25*7A
$GPGSV,4,3,14,20,18,267,17,27,13,039,19,30,62,322,34,46,46,191,*7A
$GPGSV,4,4,14,48,46,184,31,51,43,156,28*76
$GLGSV,3,1,09,66,36,189,29,67,60,272,23,68,23,327,23,76,33,043,33*6F
$GLGSV,3,2,09,77,58,331,17,78,22,268,,85,09,025,19,86,21,071,*64
$GLGSV,3,3,09,87,08,132,13*59
$GPGLL,3746.03249,N,12217.15789,W,015704.00,A,D*76
$GPRMC,015705.00,A,3746.03251,N,12217.15798,W,0.192,,121121,,,D*6D
$GPVTG,,T,,M,0.192,N,0.356,K,D*2C
$GPGGA,015705.00,3746.03251,N,12217.15798,W,2,12,0.69,-1.2,M,-29.6,M,,0000*4F
$GPGSA,A,3,08,09,05,07,30,14,20,27,04,51,,,1.34,0.69,1.15*0C
$GPGSA,A,3,67,77,66,76,,,,,,,,,1.34,0.69,1.15*0E
$GPGSV,4,1,14,04,08,144,18,05,17,298,24,07,65,045,09,08,34,062,35*7A
$GPGSV,4,2,14,09,41,154,36,13,14,316,22,14,49,236,36,17,08,181,25*7B
$GPGSV,4,3,14,20,18,267,16,27,13,039,19,30,62,322,34,46,46,191,*7B
$GPGSV,4,4,14,48,46,184,31,51,43,156,28*76
$GLGSV,3,1,09,66,36,189,29,67,60,272,23,68,23,327,22,76,33,043,32*6F
$GLGSV,3,2,09,77,58,331,15,78,22,268,,85,09,025,18,86,21,071,*67
$GLGSV,3,3,09,87,08,132,10*5A
$GPGLL,3746.03251,N,12217.15798,W,015705.00,A,D*7E
$GPRMC,015706.00,A,3746.03252,N,12217.15800,W,0.113,,121121,,,D*6A
$GPVTG,,T,,M,0.113,N,0.209,K,D*2E
$GPGGA,015706.00,3746.03252,N,12217.15800,W,2,12,0.67,-1.4,M,-29.6,M,,0000*49
$GPGSA,A,3,08,09,05,07,30,14,20,27,04,51,,,1.24,0.67,1.05*02
$GPGSA,A,3,67,77,66,76,,,,,,,,,1.24,0.67,1.05*00
$GPGSV,4,1,14,04,08,144,17,05,17,298,24,07,65,045,09,08,34,062,35*75
$GPGSV,4,2,14,09,41,154,35,13,14,316,21,14,49,236,36,17,08,181,26*78
$GPGSV,4,3,14,20,18,267,14,27,13,039,20,30,62,322,35,46,46,191,*72
$GPGSV,4,4,14,48,46,184,31,51,43,156,29*77
$GLGSV,3,1,09,66,36,189,29,67,60,272,23,68,23,327,23,76,33,043,32*6E
$GLGSV,3,2,09,77,58,331,15,78,22,268,,85,09,025,18,86,21,071,*67
$GLGSV,3,3,09,87,08,132,09*52
$GPGLL,3746.03252,N,12217.15800,W,015706.00,A,D*70
$GPRMC,015707.00,A,3746.03253,N,12217.15803,W,0.128,,121121,,,D*61
$GPVTG,,T,,M,0.128,N,0.236,K,D*2A
$GPGGA,015707.00,3746.03253,N,12217.15803,W,2,12,0.67,-1.8,M,-29.6,M,,0000*46
$GPGSA,A,3,08,09,05,07,30,14,20,27,04,51,,,1.24,0.67,1.05*02
$GPGSA,A,3,67,77,66,76,,,,,,,,,1.24,0.67,1.05*00
$GPGSV,4,1,14,04,08,144,16,05,17,298,24,07,65,045,10,08,34,062,35*7C
$GPGSV,4,2,14,09,41,154,35,13,14,316,21,14,49,236,36,17,08,181,26*78
$GPGSV,4,3,14,20,18,267,13,27,13,039,19,30,62,322,35,46,46,191,*7F
$GPGSV,4,4,14,48,46,184,31,51,43,156,29*77
$GLGSV,3,1,09,66,36,189,30,67,60,272,23,68,23,327,23,76,33,043,32*66
$GLGSV,3,2,09,77,58,331,14,78,22,268,,85,09,025,19,86,21,071,*67
$GLGSV,3,3,09,87,08,132,09*52
$GPGLL,3746.03253,N,12217.15803,W,015707.00,A,D*73
$GPRMC,015708.00,A,3746.03252,N,12217.15794,W,0.096,,121121,,,D*6A
$GPVTG,,T,,M,0.096,N,0.178,K,D*27
$GPGGA,015708.00,3746.03252,N,12217.15794,W,2,12,0.67,-1.5,M,-29.6,M,,0000*44
$GPGSA,A,3,08,09,05,07,30,14,20,27,04,51,,,1.24,0.67,1.05*02
$GPGSA,A,3,67,77,66,76,,,,,,,,,1.24,0.67,1.05*00
$GPGSV,4,1,14,04,08,144,16,05,17,298,25,07,65,045,14,08,34,062,35*79
$GPGSV,4,2,14,09,41,154,35,13,14,316,22,14,49,236,36,17,08,181,26*7B
$GPGSV,4,3,14,20,18,267,14,27,13,039,19,30,62,322,34,46,46,191,*79
$GPGSV,4,4,14,48,46,184,31,51,43,156,29*77
$GLGSV,3,1,09,66,36,189,30,67,60,272,23,68,23,327,25,76,33,043,31*63
$GLGSV,3,2,09,77,58,331,14,78,22,268,,85,09,025,19,86,21,071,*67
$GLGSV,3,3,09,87,08,132,*5B
$GPGLL,3746.03252,N,12217.15794,W,015708.00,A,D*7C
$GPRMC,015709.00,A,3746.03254,N,12217.15798,W,0.191,,121121,,,D*67
$GPVTG,,T,,M,0.191,N,0.353,K,D*2A
$GPGGA,015709.00,3746.03254,N,12217.15798,W,2,12,0.67,-2.0,M,-29.6,M,,0000*49
$GPGSA,A,3,08,09,05,07,30,14,20,27,04,51,,,1.24,0.67,1.05*02
$GPGSA,A,3,67,66,76,,,,,,,,,,1.24,0.67,1.05*00
$GPGSV,4,1,14,04,08,144,15,05,17,298,25,07,65,045,14,08,34,062,34*7B
$GPGSV,4,2,14,09,41,154,36,13,14,316,22,14,49,236,36,17,08,181,26*78
$GPGSV,4,3,14,20,18,267,13,27,13,039,19,30,62,322,33,46,46,191,*79
$GPGSV,4,4,14,48,46,184,31,51,43,156,30*7F
$GLGSV,3,1,09,66,36,189,31,67,60,272,23,68,23,327,24,76,33,043,31*63
$GLGSV,3,2,09,77,58,331,12,78,22,268,,85,09,025,19,86,21,071,*61
$GLGSV,3,3,09,87,08,132,*5B
$GPGLL,3746.03254,N,12217.15798,W,015709.00,A,D*77
$GPRMC,015710.00,A,3746.03254,N,12217.15799,W,0.045,,121121,,,D*66
$GPVTG,,T,,M,0.045,N,0.083,K,D*2C
$GPGGA,015710.00,3746.03254,N,12217.15799,W,2,12,0.67,-2.4,M,-29.6,M,,0000*44
$GPGSA,A,3,08,09,05,07,30,14,20,27,04,51,,,1.24,0.67,1.05*02
$GPGSA,A,3,67,66,76,,,,,,,,,,1.24,0.67,1.05*00
$GPGSV,4,1,14,04,08,144,14,05,17,298,26,07,65,045,14,08,34,062,35*78
$GPGSV,4,2,14,09,41,154,36,13,14,316,23,14,49,236,36,17,08,181,25*7A
$GPGSV,4,3,14,20,18,267,14,27,13,039,19,30,62,322,34,46,46,191,*79
$GPGSV,4,4,14,48,46,184,31,51,43,156,30*7F
$GLGSV,3,1,09,66,36,189,31,67,60,272,22,68,23,327,24,76,33,043,32*61
$GLGSV,3,2,09,77,58,331,13,78,22,268,,85,09,025,18,86,21,071,*61
$GLGSV,3,3,09,87,08,132,*5B
$GPGLL,3746.03254,N,12217.15799,W,015710.00,A,D*7E
$GPRMC,015711.00,A,3746.03253,N,12217.15799,W,0.110,,121121,,,D*61
$GPVTG,,T,,M,0.110,N,0.203,K,D*27
$GPGGA,015711.00,3746.03253,N,12217.15799,W,2,12,0.67,-2.6,M,-29.6,M,,0000*40
$GPGSA,A,3,08,09,05,07,30,14,20,27,04,51,,,1.24,0.67,1.04*03
$GPGSA,A,3,67,77,66,76,,,,,,,,,1.24,0.67,1.04*01
$GPGSV,4,1,14,04,08,144,14,05,17,298,26,07,65,045,14,08,34,062,35*78
$GPGSV,4,2,14,09,41,154,36,13,14,316,23,14,49,236,36,17,08,181,26*79
$GPGSV,4,3,14,20,18,267,12,27,13,039,19,30,62,322,33,46,46,191,*78
$GPGSV,4,4,14,48,46,184,31,51,43,156,30*7F
$GLGSV,3,1,09,66,36,189,31,67,60,272,22,68,23,327,25,76,33,043,32*60
$GLGSV,3,2,09,77,58,331,15,78,22,268,,85,09,025,18,86,21,071,*67
$GLGSV,3,3,09,87,08,132,*5B
$GPGLL,3746.03253,N,12217.15799,W,015711.00,A,D*78
$GPRMC,015712.00,A,3746.03252,N,12217.15796,W,0.060,,121121,,,D*6A
$GPVTG,,T,,M,0.060,N,0.111,K,D*21
$GPGGA,015712.00,3746.03252,N,12217.15796,W,2,12,0.71,-2.6,M,-29.6,M,,0000*4A
$GPGSA,A,3,08,09,05,07,30,14,27,04,51,,,,1.30,0.71,1.09*0E
$GPGSA,A,3,67,66,76,,,,,,,,,,1.30,0.71,1.09*0E
$GPGSV,4,1,14,04,08,144,16,05,17,298,27,07,65,045,14,08,34,062,35*7B
$GPGSV,4,2,14,09,41,154,35,13,14,316,23,14,49,236,36,17,08,181,25*79
$GPGSV,4,3,14,20,18,267,08,27,13,039,18,30,62,322,33,46,46,191,*72
$GPGSV,4,4,14,48,46,184,31,51,43,156,30*7F
1*60
$GLGSV,3,2,09,77,58,331,15,78,22,268,,85,09,025,17,86,21,071,*68
$GLGSV,3,3,09,87,08,132,*5B
$GPGLL,3746.03252,N,12217.15796,W,015712.00,A,D*75
$GPRMC,015713.00,A,3746.03250,N,12217.15791,W,0.007,,121121,,,D*6F
$GPVTG,,T,,M,0.007,N,0.012,K,D*22
$GPGGA,015713.00,3746.03250,N,12217.15791,W,2,12,0.67,-2.7,M,-29.6,M,,0000*48
$GPGSA,A,3,08,09,05,07,30,14,20,27,04,51,,,1.24,0.67,1.04*03
$GPGSA,A,3,67,66,76,,,,,,,,,,1.24,0.67,1.04*01
$GPGSV,4,1,14,04,08,144,18,05,17,298,27,07,65,045,23,08,34,062,35*71
$GPGSV,4,2,14,09,41,154,36,13,14,316,23,14,49,236,36,17,08,181,25*7A
$GPGSV,4,3,14,20,18,267,10,27,13,039,17,30,62,322,34,46,46,191,*73
$GPGSV,4,4,14,48,46,184,32,51,43,156,30*7C
$GLGSV,3,1,09,66,36,189,32,67,60,272,23,68,23,327,24,76,33,043,31*60
$GLGSV,3,2,09,77,58,331,12,78,22,268,,85,09,025,17,86,21,071,*6F
$GLGSV,3,3,09,87,08,132,*5B
$GPGLL,3746.03250,N,12217.15791,W,015713.00,A,D*71
$GPRMC,015714.00,A,3746.03248,N,12217.15787,W,0.008,,121121,,,D*69
$GPVTG,,T,,M,0.008,N,0.015,K,D*2A
$GPGGA,015714.00,3746.03248,N,12217.15787,W,2,12,0.71,-2.5,M,-29.6,M,,0000*44
$GPGSA,A,3,08,09,05,07,30,14,20,27,04,51,,,1.30,0.71,1.09*0C
$GPGSA,A,3,67,77,66,76,,,,,,,,,1.30,0.71,1.09*0E
$GPGSV,4,1,14,04,08,144,19,05,17,298,27,07,65,045,24,08,34,062,34*76
$GPGSV,4,2,14,09,41,154,36,13,14,316,23,14,49,236,36,17,08,181,25*7A
$GPGSV,4,3,14,20,18,267,10,27,13,039,18,30,62,322,33,46,46,191,*7B
$GPGSV,4,4,14,48,46,184,32,51,43,156,30*7C
$GLGSV,3,1,09,66,36,189,32,67,60,272,24,68,23,327,23,76,33,043,31*60
$GLGSV,3,2,09,77,58,331,12,78,22,268,,85,09,025,17,86,21,071,*6F
$GLGSV,3,3,09,87,08,132,*5B
$GPGLL,3746.03248,N,12217.15787,W,015714.00,A,D*78
$GPRMC,015715.00,A,3746.03249,N,12217.15781,W,0.093,,121121,,,D*6D
$GPVTG,,T,,M,0.093,N,0.172,K,D*28
$GPGGA,015715.00,3746.03249,N,12217.15781,W,2,12,0.67,-2.4,M,-29.6,M,,0000*44
$GPGSA,A,3,08,09,05,07,30,14,20,27,04,51,,,1.24,0.67,1.04*03
$GPGSA,A,3,67,77,66,76,,,,,,,,,1.24,0.67,1.04*01
$GPGSV,4,1,14,04,08,144,20,05,17,298,27,07,65,045,25,08,34,062,35*7C
$GPGSV,4,2,14,09,41,154,36,13,14,316,24,14,49,236,38,17,08,181,26*70
$GPGSV,4,3,14,20,18,267,10,27,13,039,19,30,62,322,35,46,46,191,*7C
$GPGSV,4,4,14,48,46,184,33,51,43,156,31*7C
$GLGSV,3,1,09,66,36,189,33,67,60,272,25,68,23,327,23,76,33,043,31*60
$GLGSV,3,2,09,77,58,331,13,78,22,268,,85,09,025,15,86,21,071,*6C
$GLGSV,3,3,09,87,08,132,*5B
$GPGLL,3746.03249,N,12217.15781,W,015715.00,A,D*7E
$GPRMC,015716.00,A,3746.03252,N,12217.15772,W,0.037,,121121,,,D*66
$GPVTG,,T,,M,0.037,N,0.068,K,D*2C
$GPGGA,015716.00,3746.03252,N,12217.15772,W,2,12,0.67,-2.1,M,-29.6,M,,0000*44
$GPGSA,A,3,08,09,05,07,30,14,20,27,04,51,,,1.24,0.67,1.04*03
$GPGSA,A,3,67,77,66,76,,,,,,,,,1.24,0.67,1.04*01
$GPGSV,4,1,14,04,08,144,20,05,17,298,28,07,65,045,26,08,34,062,36*73
$GPGSV,4,2,14,09,41,154,36,13,14,316,24,14,49,236,38,17,08,181,26*70
$GPGSV,4,3,14,20,18,267,10,27,12,039,20,30,62,322,34,46,46,191,*76
$GPGSV,4,4,14,48,46,184,33,51,43,156,32*7F
$GLGSV,3,1,09,66,36,189,33,67,60,272,25,68,23,327,24,76,33,043,31*67
$GLGSV,3,2,09,77,58,331,14,78,22,268,,85,09,025,16,86,21,071,*68
$GLGSV,3,3,09,87,08,132,*5B
$GPGLL,3746.03252,N,12217.15772,W,015716.00,A,D*7B
$GPRMC,015717.00,A,3746.03255,N,12217.15764,W,0.060,,121121,,,D*65
$GPVTG,,T,,M,0.060,N,0.111,K,D*21
$GPGGA,015717.00,3746.03255,N,12217.15764,W,2,12,0.71,-1.8,M,-29.6,M,,0000*48
$GPGSA,A,3,08,09,05,07,30,14,20,27,04,51,,,1.30,0.71,1.09*0C
$GPGSA,A,3,67,77,66,76,,,,,,,,,1.30,0.71,1.09*0E
$GPGSV,4,1,14,04,08,144,20,05,17,298,28,07,65,045,27,08,34,062,36*72
$GPGSV,4,2,14,09,41,154,36,13,14,316,24,14,49,236,38,17,08,181,26*70
$GPGSV,4,3,14,20,18,267,10,27,12,039,20,30,62,322,35,46,46,191,*77
$GPGSV,4,4,14,48,46,184,33,51,43,156,32*7F
$GLGSV,3,1,09,66,36,189,32,67,60,272,26,68,23,327,24,76,33,043,31*65
$GLGSV,3,2,09,77,58,331,15,78,22,268,,85,09,025,15,86,21,071,*6A
$GLGSV,3,3,09,87,08,132,*5B
$GPGLL,3746.03255,N,12217.15764,W,015717.00,A,D*7A
$GPRMC,015718.00,A,3746.03256,N,12217.15757,W,0.003,,121121,,,D*6C
$GPVTG,,T,,M,0.003,N,0.006,K,D*23
$GPGGA,015718.00,3746.03256,N,12217.15757,W,2,12,0.67,-1.6,M,-29.6,M,,0000*4D
$GPGSA,A,3,08,09,05,07,30,14,20,27,04,51,,,1.24,0.67,1.04*03
$GPGSA,A,3,67,77,66,76,,,,,,,,,1.24,0.67,1.04*01
$GPGSV,4,1,14,04,08,144,21,05,17,298,28,07,65,045,27,08,34,062,36*73
$GPGSV,4,2,14,09,41,154,36,13,14,316,24,14,49,236,38,17,08,181,26*70
$GPGSV,4,3,14,20,18,267,10,27,12,039,20,30,62,323,34,46,46,191,*77
$GPGSV,4,4,14,48,46,184,33,51,43,156,33*7E
$GLGSV,3,1,09,66,36,189,33,67,60,272,26,68,23,327,25,76,33,043,31*65
$GLGSV,3,2,09,77,58,331,14,78,22,268,,85,09,025,16,86,21,071,*68
$GLGSV,3,3,09,87,08,132,*5B
$GPGLL,3746.03256,N,12217.15757,W,015718.00,A,D*76
$GPRMC,015719.00,A,3746.03254,N,12217.15751,W,0.093,,121121,,,D*60
$GPVTG,,T,,M,0.093,N,0.173,K,D*29
$GPGGA,015719.00,3746.03254,N,12217.15751,W,2,12,0.67,-1.5,M,-29.6,M,,0000*4B
$GPGSA,A,3,08,09,05,07,30,14,20,27,04,51,,,1.24,0.67,1.04*03
$GPGSA,A,3,67,77,66,76,,,,,,,,,1.24,0.67,1.04*01
$GPGSV,4,1,14,04,08,144,20,05,17,298,27,07,65,045,27,08,34,062,35*7E
$GPGSV,4,2,14,09,41,154,35,13,14,316,23,14,49,236,37,17,08,181,26*7B
$GPGSV,4,3,14,20,18,267,12,27,12,039,17,30,62,323,34,46,46,191,*71
$GPGSV,4,4,14,48,46,184,33,51,43,156,32*7F
$GLGSV,3,1,09,66,36,189,32,67,60,272,26,68,23,327,25,76,33,043,32*67
$GLGSV,3,2,09,77,58,331,15,78,22,268,,85,09,025,16,86,21,071,*69
$GLGSV,3,3,09,87,08,132,*5B
$GPGLL,3746.03254,N,12217.15751,W,015719.00,A,D*73
$GPRMC,015720.00,A,3746.03252,N,12217.15747,W,0.025,,121121,,,D*66
$GPVTG,,T,,M,0.025,N,0.046,K,D*23
$GPGGA,015720.00,3746.03252,N,12217.15747,W,2,12,0.71,-1.4,M,-29.6,M,,0000*46
$GPGSA,A,3,08,09,05,07,30,14,20,27,04,51,,,1.30,0.71,1.09*0C
$GPGSA,A,3,67,77,66,76,,,,,,,,,1.30,0.71,1.09*0E
$GPGSV,4,1,14,04,08,144,20,05,17,298,27,07,65,045,28,08,34,062,35*71
$GPGSV,4,2,14,09,41,154,35,13,14,316,23,14,49,236,37,17,08,181,26*7B
$GPGSV,4,3,14,20,18,267,13,27,12,039,16,30,62,323,34,46,46,191,*71
$GPGSV,4,4,14,48,46,184,33,51,43,156,32*7F
$GLGSV,3,1,09,66,36,189,32,67,60,272,27,68,23,327,25,76,33,043,32*66
$GLGSV,3,2,09,77,58,331,16,78,22,268,,85,09,025,17,86,21,071,*6B
$GLGSV,3,3,09,87,08,132,*5B
$GPGLL,3746.03252,N,12217.15747,W,015720.00,A,D*78
$GPRMC,015721.00,A,3746.03253,N,12217.15743,W,0.033,,121121,,,D*65
$GPVTG,,T,,M,0.033,N,0.061,K,D*21
$GPGGA,015721.00,3746.03253,N,12217.15743,W,2,12,0.67,-1.3,M,-29.6,M,,0000*42
$GPGSA,A,3,08,09,05,07,30,14,20,27,04,51,,,1.24,0.67,1.04*03
$GPGSA,A,3,67,77,66,76,,,,,,,,,1.24,0.67,1.04*01
$GPGSV,4,1,14,04,08,144,20,05,17,298,26,07,65,045,28,08,34,062,35*70
$GPGSV,4,2,14,09,41,154,34,13,14,316,24,14,49,236,37,17,08,181,26*7D
$GPGSV,4,3,14,20,18,267,13,27,12,039,13,30,62,323,34,46,46,191,*74
$GPGSV,4,4,14,48,46,184,33,51,43,156,31*7C
$GLGSV,3,1,09,66,36,189,32,67,60,272,27,68,23,327,24,76,33,043,31*64
$GLGSV,3,2,09,77,58,331,16,78,22,268,,85,09,025,18,86,21,071,*64
$GLGSV,3,3,09,87,08,132,*5B
$GPGLL,3746.03253,N,12217.15743,W,015721.00,A,D*7C
$GPRMC,015722.00,A,3746.03255,N,12217.15739,W,0.085,,121121,,,D*60
$GPVTG,,T,,M,0.085,N,0.157,K,D*28
$GPGGA,015722.00,3746.03255,N,12217.15739,W,2,12,0.67,-1.2,M,-29.6,M,,0000*4B
$GPGSA,A,3,08,09,05,07,30,14,20,27,04,51,,,1.24,0.67,1.04*03
$GPGSA,A,3,67,77,66,76,,,,,,,,,1.24,0.67,1.04*01
$GPGSV,4,1,14,04,08,144,20,05,17,298,26,07,65,045,29,08,34,062,35*71
$GPGSV,4,2,14,09,41,154,34,13,14,316,24,14,49,236,37,17,08,181,26*7D
$GPGSV,4,3,14,20,18,267,13,27,12,039,12,30,62,323,34,46,46,191,*75
$GPGSV,4,4,14,48,46,184,33,51,43,156,31*7C
$GLGSV,3,1,09,66,36,189,32,67,60,272,27,68,23,327,24,76,33,043,31*64
$GLGSV,3,2,09,77,58,331,17,78,22,268,,85,09,025,19,86,21,071,*64
$GLGSV,3,3,09,87,08,132,*5B
$GPGLL,3746.03255,N,12217.15739,W,015722.00,A,D*74
$GPRMC,015723.00,A,3746.03254,N,12217.15734,W,0.024,,121121,,,D*66
$GPVTG,,T,,M,0.024,N,0.044,K,D*20
$GPGGA,015723.00,3746.03254,N,12217.15734,W,2,12,0.71,-1.0,M,-29.6,M,,0000*43
$GPGSA,A,3,08,09,05,07,30,14,20,27,04,51,,,1.30,0.71,1.09*0C
$GPGSA,A,3,67,77,66,76,,,,,,,,,1.30,0.71,1.09*0E
$GPGSV,4,1,14,04,08,144,21,05,17,298,25,07,65,045,29,08,34,062,35*73
$GPGSV,4,2,14,09,41,154,34,13,14,316,25,14,49,236,37,17,08,181,26*7C
$GPGSV,4,3,14,20,18,267,13,27,12,039,10,30,62,323,34,46,46,191,*77
$GPGSV,4,4,14,48,46,184,33,51,43,156,31*7C
$GLGSV,3,1,09,66,36,189,32,67,60,272,27,68,23,327,24,76,33,043,31*64
$GLGSV,3,2,09,77,58,331,17,78,22,268,,85,09,025,19,86,21,071,*64
$GLGSV,3,3,09,87,08,132,*5B
$GPGLL,3746.03254,N,12217.15734,W,015723.00,A,D*79
$GPRMC,015724.00,A,3746.03253,N,12217.15731,W,0.049,,121121,,,D*68
$GPVTG,,T,,M,0.049,N,0.090,K,D*22
$GPGGA,015724.00,3746.03253,N,12217.15731,W,2,12,0.74,-0.8,M,-29.6,M,,0000*4A
$GPGSA,A,3,08,09,05,07,30,14,20,04,51,,,,1.34,0.74,1.12*02
$GPGSA,A,3,67,77,66,76,,,,,,,,,1.34,0.74,1.12*05
$GPGSV,4,1,14,04,08,144,21,05,17,298,24,07,65,045,29,08,34,062,35*72
$GPGSV,4,2,14,09,41,154,34,13,14,316,25,14,49,236,37,17,08,181,25*7F
$GPGSV,4,3,14,20,18,267,13,27,12,039,09,30,62,323,34,46,46,191,*7F
$GPGSV,4,4,14,48,46,184,33,51,43,156,31*7C
$GLGSV,3,1,09,66,36,189,32,67,60,272,27,68,23,327,24,76,33,043,31*64
$GLGSV,3,2,09,77,58,331,17,78,22,268,,85,09,025,19,86,21,071,*64
$GLGSV,3,3,09,87,08,132,*5B
$GPGLL,3746.03253,N,12217.15731,W,015724.00,A,D*7C
$GPRMC,015725.00,A,3746.03253,N,12217.15727,W,0.063,,121121,,,D*66
$GPVTG,,T,,M,0.063,N,0.118,K,D*2B
$GPGGA,015725.00,3746.03253,N,12217.15727,W,2,12,0.67,-0.8,M,-29.6,M,,0000*4E
$GPGSA,A,3,08,09,05,07,30,14,20,27,04,51,,,1.24,0.67,1.04*03
$GPGSA,A,3,67,77,66,76,,,,,,,,,1.24,0.67,1.04*01
$GPGSV,4,1,14,04,08,144,20,05,17,298,24,07,65,045,29,08,34,062,35*73
$GPGSV,4,2,14,09,41,154,35,13,14,316,25,14,49,236,37,17,08,181,25*7E
$GPGSV,4,3,14,20,18,267,14,27,12,039,08,30,62,323,35,46,46,191,*78
$GPGSV,4,4,14,48,46,184,33,51,43,156,31*7C
$GLGSV,3,1,09,66,36,189,32,67,60,272,26,68,23,327,24,76,33,043,31*65
$GLGSV,3,2,09,77,58,331,16,78,22,268,,85,09,025,18,86,21,071,*64
$GLGSV,3,3,09,87,08,132,*5B
$GPGLL,3746.03253,N,12217.15727,W,015725.00,A,D*7A
$GPRMC,015726.00,A,3746.03251,N,12217.15722,W,0.012,,121121,,,D*64
$GPVTG,,T,,M,0.012,N,0.023,K,D*24
$GPGGA,015726.00,3746.03251,N,12217.15722,W,2,12,0.77,-0.6,M,-29.6,M,,0000*45
$GPGSA,A,3,08,09,05,07,30,14,20,04,51,,,,1.39,0.77,1.16*08
$GPGSA,A,3,67,77,66,76,,,,,,,,,1.39,0.77,1.16*0F
$GPGSV,4,1,14,04,08,144,20,05,17,298,24,07,65,045,29,08,34,062,34*72
$GPGSV,4,2,14,09,41,154,35,13,14,316,25,14,49,236,37,17,08,181,25*7E
$GPGSV,4,3,14,20,18,267,15,27,12,039,,30,62,323,34,46,46,191,*70
$GPGSV,4,4,14,48,46,184,33,51,43,156,31*7C
$GLGSV,3,1,09,66,36,189,32,67,60,272,26,68,23,327,24,76,33,043,31*65
$GLGSV,3,2,09,77,58,331,16,78,22,268,,85,09,025,18,86,21,071,*64
$GLGSV,3,3,09,87,08,132,*5B
$GPGLL,3746.03251,N,12217.15722,W,015726.00,A,D*7E
$GPRMC,015727.00,A,3746.03252,N,12217.15720,W,0.093,,121121,,,D*6D
$GPVTG,,T,,M,0.093,N,0.173,K,D*29
$GPGGA,015727.00,3746.03252,N,12217.15720,W,2,12,0.74,-0.8,M,-29.6,M,,0000*48
$GPGSA,A,3,08,09,05,07,30,14,20,04,51,,,,1.34,0.74,1.12*02
$GPGSA,A,3,67,77,66,76,,,,,,,,,1.34,0.74,1.12*05
$GPGSV,4,1,14,04,08,144,20,05,17,298,24,07,65,045,29,08,34,062,34*72
$GPGSV,4,2,14,09,41,154,35,13,14,316,26,14,49,236,37,17,08,181,24*7C
$GPGSV,4,3,14,20,18,267,15,27,12,039,,30,62,323,35,46,46,191,*71
$GPGSV,4,4,14,48,46,184,32,51,43,156,31*7D
$GLGSV,3,1,09,66,36,189,32,67,60,272,26,68,23,327,23,76,33,043,31*62
$GLGSV,3,2,09,77,58,331,17,78,22,268,,85,09,025,19,86,21,071,*64
$GLGSV,3,3,09,87,08,132,*5B
$GPGLL,3746.03252,N,12217.15720,W,015727.00,A,D*7E
$GPRMC,015728.00,A,3746.03251,N,12217.15714,W,0.053,,121121,,,D*6A
$GPVTG,,T,,M,0.053,N,0.099,K,D*20
$GPGGA,015728.00,3746.03251,N,12217.15714,W,2,12,0.74,-0.6,M,-29.6,M,,0000*4D
$GPGSA,A,3,08,09,05,07,30,14,20,04,51,,,,1.34,0.74,1.12*02
$GPGSA,A,3,67,77,66,76,,,,,,,,,1.34,0.74,1.12*05
$GPGSV,4,1,14,04,08,144,19,05,17,298,23,07,65,045,28,08,34,062,34*7E
$GPGSV,4,2,14,09,41,154,35,13,14,316,26,14,49,236,36,17,08,181,23*7A
$GPGSV,4,3,14,20,18,267,15,27,12,039,16,30,62,323,34,46,46,191,*77
$GPGSV,4,4,14,48,46,184,32,51,43,156,31*7D
$GLGSV,3,1,09,66,36,189,32,67,60,272,26,68,23,327,23,76,33,043,31*62
$GLGSV,3,2,09,77,58,331,18,78,22,268,,85,09,025,18,86,21,071,*6A
$GLGSV,3,3,09,87,08,132,*5B
$GPGLL,3746.03251,N,12217.15714,W,015728.00,A,D*75
$GPRMC,015729.00,A,3746.03254,N,12217.15715,W,0.075,,121121,,,D*6B
$GPVTG,,T,,M,0.075,N,0.138,K,D*2E
$GPGGA,015729.00,3746.03254,N,12217.15715,W,2,12,0.77,-0.8,M,-29.6,M,,0000*45
$GPGSA,A,3,08,09,05,07,30,14,04,51,,,,,1.39,0.77,1.16*0A
$GPGSA,A,3,67,77,66,76,,,,,,,,,1.39,0.77,1.16*0F
$GPGSV,4,1,14,04,08,144,18,05,17,298,22,07,65,045,28,08,34,062,33*79
$GPGSV,4,2,14,09,41,154,34,13,14,316,25,14,49,236,35,17,08,181,21*79
$GPGSV,4,3,14,20,18,267,,27,12,039,16,30,62,323,33,46,46,191,*74
$GPGSV,4,4,14,48,46,184,31,51,43,156,29*77
$GLGSV,3,1,09,66,36,189,32,67,60,272,26,68,23,327,24,76,33,043,30*64
$GLGSV,3,2,09,77,58,331,19,78,22,268,,85,09,025,19,86,21,071,*6A
$GLGSV,3,3,09,87,08,132,*5B
$GPGLL,3746.03254,N,12217.15715,W,015729.00,A,D*70
$GPRMC,015730.00,A,3746.03257,N,12217.15718,W,0.097,,121121,,,D*61
$GPVTG,,T,,M,0.097,N,0.180,K,D*21
$GPGGA,015730.00,3746.03257,N,12217.15718,W,2,12,0.77,-1.0,M,-29.6,M,,0000*4A
$GPGSA,A,3,08,09,05,07,30,14,04,51,,,,,1.39,0.77,1.16*0A
$GPGSA,A,3,67,77,66,76,,,,,,,,,1.39,0.77,1.16*0F
$GPGSV,4,1,14,04,08,144,18,05,17,298,21,07,65,045,27,08,34,062,33*75
$GPGSV,4,2,14,09,41,154,34,13,14,316,25,14,49,236,35,17,08,181,20*78
$GPGSV,4,3,14,20,18,267,,27,12,039,16,30,62,323,33,46,46,191,*74
$GPGSV,4,4,14,48,46,184,31,51,43,156,29*77
$GLGSV,3,1,09,66,36,189,31,67,60,272,27,68,23,327,24,76,33,043,30*66
$GLGSV,3,2,09,77,58,331,19,78,22,268,,85,09,025,17,86,21,071,*64
$GLGSV,3,3,09,87,08,132,*5B
$GPGLL,3746.03257,N,12217.15718,W,015730.00,A,D*76
$GPRMC,015731.00,A,3746.03257,N,12217.15716,W,0.046,,121121,,,D*62
$GPVTG,,T,,M,0.046,N,0.085,K,D*29
$GPGGA,015731.00,3746.03257,N,12217.15716,W,2,12,0.77,-0.9,M,-29.6,M,,0000*4D
$GPGSA,A,3,08,09,05,07,30,14,04,51,,,,,1.39,0.77,1.16*0A
$GPGSA,A,3,67,77,66,76,,,,,,,,,1.39,0.77,1.16*0F
$GPGSV,4,1,14,04,08,144,17,05,17,298,21,07,65,045,27,08,34,062,33*7A
$GPGSV,4,2,14,09,41,154,34,13,14,316,25,14,49,236,35,17,08,181,19*72
$GPGSV,4,3,14,20,18,267,07,27,12,039,15,30,62,323,33,46,46,191,*70
$GPGSV,4,4,14,48,46,184,31,51,43,156,29*77
$GLGSV,3,1,09,66,36,189,32,67,60,272,27,68,23,327,24,76,33,043,30*65
$GLGSV,3,2,09,77,58,331,17,78,22,268,,85,09,025,18,86,21,071,*65
$GLGSV,3,3,09,87,08,132,*5B
$GPGLL,3746.03257,N,12217.15716,W,015731.00,A,D*79
$GPRMC,015732.00,A,3746.03258,N,12217.15716,W,0.079,,121121,,,D*62
$GPVTG,,T,,M,0.079,N,0.146,K,D*2B
$GPGGA,015732.00,3746.03258,N,12217.15716,W,2,12,0.77,-1.0,M,-29.6,M,,0000*49
$GPGSA,A,3,08,09,05,07,30,14,27,04,51,,,,1.39,0.77,1.16*0F
$GPGSA,A,3,67,77,66,76,,,,,,,,,1.39,0.77,1.16*0F
$GPGSV,4,1,14,04,08,144,16,05,17,298,20,07,65,045,27,08,34,062,33*7A
$GPGSV,4,2,14,09,41,154,34,13,14,316,25,14,49,236,35,17,08,181,19*72
$GPGSV,4,3,14,20,18,267,08,27,12,039,16,30,62,323,33,46,46,191,*7C
$GPGSV,4,4,14,48,46,184,31,51,43,156,29*77
$GLGSV,3,1,09,66,36,189,32,67,60,272,27,68,23,327,24,76,33,043,30*65
$GLGSV,3,2,09,77,58,331,17,78,22,268,,85,09,025,16,86,21,071,*6B
$GLGSV,3,3,09,87,08,132,*5B
$GPGLL,3746.03258,N,12217.15716,W,015732.00,A,D*75
$GPRMC,015733.00,A,3746.03261,N,12217.15721,W,0.135,,121121,,,D*64
$GPVTG,,T,,M,0.135,N,0.249,K,D*2E
$GPGGA,015733.00,3746.03261,N,12217.15721,W,2,12,0.77,-1.4,M,-29.6,M,,0000*42
$GPGSA,A,3,08,09,05,07,30,14,27,04,51,,,,1.39,0.77,1.16*0F
$GPGSA,A,3,67,77,66,76,,,,,,,,,1.39,0.77,1.16*0F
$GPGSV,4,1,14,04,08,144,17,05,17,298,21,07,65,045,27,08,34,062,34*7D
$GPGSV,4,2,14,09,41,154,34,13,14,316,25,14,49,236,35,17,08,181,18*73
$GPGSV,4,3,14,20,18,267,11,27,12,039,16,30,62,323,33,46,46,191,*74
$GPGSV,4,4,14,48,46,184,31,51,43,156,29*77
$GLGSV,3,1,09,66,36,189,32,67,60,272,28,68,23,327,24,76,33,043,30*6A
$GLGSV,3,2,09,77,58,331,17,78,22,268,,85,09,025,17,86,21,071,*6A
$GLGSV,3,3,09,87,08,132,*5B
$GPGLL,3746.03261,N,12217.15721,W,015733.00,A,D*7A
$GPRMC,015734.00,A,3746.03261,N,12217.15722,W,0.056,,121121,,,D*64
$GPVTG,,T,,M,0.056,N,0.104,K,D*20
$GPGGA,015734.00,3746.03261,N,12217.15722,W,2,12,0.77,-1.6,M,-29.6,M,,0000*44
$GPGSA,A,3,08,09,05,07,30,14,27,04,51,,,,1.39,0.77,1.16*0F
$GPGSA,A,3,67,77,66,76,,,,,,,,,1.39,0.77,1.16*0F
$GPGSV,4,1,14,04,08,144,17,05,17,298,21,07,65,045,27,08,34,062,34*7D
$GPGSV,4,2,14,09,41,154,34,13,14,316,25,14,49,236,35,17,08,181,18*73
$GPGSV,4,3,14,20,18,267,14,27,12,039,15,30,62,323,33,46,46,191,*72
$GPGSV,4,4,14,48,46,184,31,51,43,156,28*76
$GLGSV,3,1,09,66,36,189,32,67,60,272,28,68,23,327,24,76,33,043,30*6A
$GLGSV,3,2,09,77,58,331,18,78,22,268,,85,09,025,18,86,21,071,*6A
$GLGSV,3,3,09,87,08,132,*5B
$GPGLL,3746.03261,N,12217.15722,W,015734.00,A,D*7E
$GPRMC,015735.00,A,3746.03259,N,12217.15718,W,0.018,,121121,,,D*6D
$GPVTG,,T,,M,0.018,N,0.033,K,D*2F
$GPGGA,015735.00,3746.03259,N,12217.15718,W,2,12,0.77,-1.4,M,-29.6,M,,0000*45
$GPGSA,A,3,08,09,05,07,30,14,20,27,04,51,,,1.39,0.77,1.16*0D
$GPGSA,A,3,67,77,66,76,,,,,,,,,1.39,0.77,1.16*0F
$GPGSV,4,1,14,04,08,144,15,05,17,298,21,07,65,045,27,08,34,062,34*7F
$GPGSV,4,2,14,09,41,154,34,13,14,316,25,14,49,236,35,17,08,181,18*73
$GPGSV,4,3,14,20,18,267,14,27,12,039,15,30,62,323,33,46,46,191,*72
$GPGSV,4,4,14,48,46,184,31,51,43,156,28*76
$GLGSV,3,1,09,66,36,189,32,67,60,272,27,68,23,327,25,76,33,043,31*65
$GLGSV,3,2,09,77,58,331,17,78,22,268,,85,09,025,18,86,21,071,*65
$GLGSV,3,3,09,87,08,132,*5B
$GPGLL,3746.03259,N,12217.15718,W,015735.00,A,D*7D
$GPRMC,015736.00,A,3746.03259,N,12217.15718,W,0.042,,121121,,,D*61
$GPVTG,,T,,M,0.042,N,0.078,K,D*2F
$GPGGA,015736.00,3746.03259,N,12217.15718,W,2,12,0.77,-1.5,M,-29.6,M,,0000*47
$GPGSA,A,3,08,09,05,07,30,14,20,27,04,51,,,1.39,0.77,1.16*0D
$GPGSA,A,3,67,77,66,76,,,,,,,,,1.39,0.77,1.16*0F
$GPGSV,4,1,14,04,08,144,14,05,17,298,21,07,65,045,27,08,34,062,35*7F
$GPGSV,4,2,14,09,41,154,34,13,14,316,25,14,49,236,35,17,08,181,18*73
$GPGSV,4,3,14,20,18,267,14,27,12,039,14,30,62,323,33,46,46,191,*73
$GPGSV,4,4,14,48,46,184,31,51,43,156,28*76
$GLGSV,3,1,09,66,36,189,32,67,60,272,28,68,23,327,24,76,33,043,31*6B
$GLGSV,3,2,09,77,58,331,17,78,22,268,,85,09,025,18,86,21,071,*65
$GLGSV,3,3,09,87,08,132,*5B
$GPGLL,3746.03259,N,12217.15718,W,015736.00,A,D*7E
$GPRMC,015737.00,A,3746.03262,N,12217.15724,W,0.204,,121121,,,D*67
$GPVTG,,T,,M,0.204,N,0.378,K,D*2C
$GPGGA,015737.00,3746.03262,N,12217.15724,W,2,12,0.77,-1.8,M,-29.6,M,,0000*4C
$GPGSA,A,3,08,09,05,07,30,14,20,27,04,51,,,1.39,0.77,1.16*0D
$GPGSA,A,3,67,77,66,76,,,,,,,,,1.39,0.77,1.16*0F
$GPGSV,4,1,14,04,08,144,14,05,17,298,21,07,65,045,27,08,34,062,34*7E
$GPGSV,4,2,14,09,41,154,33,13,14,316,25,14,49,236,35,17,08,181,20*7F
$GPGSV,4,3,14,20,18,267,14,27,12,039,14,30,62,323,33,46,46,191,*73
$GPGSV,4,4,14,48,46,184,31,51,43,156,28*76
$GLGSV,3,1,09,66,36,189,32,67,60,272,28,68,23,327,24,76,33,043,31*6B
